{
    "images": [{
            "name": "Branka 1",
            "fileName": "branka1",
            "description": "Bránka na platni",
            "url": "./images/branka1.jpg",
            "timestamp": "2023-11-26 12:58:41",
            "location": {
                "lng": 18.353411,
                "lat": 48.396864
            }
        },
        {
            "name": "Branka 2",
            "fileName": "branka2",
            "description": "Ďaľšia bránka na platni",
            "url": "./images/branka2.jpg",
            "timestamp": "2023-11-26 12:58:56",
            "location": {
                "lng": 18.353411,
                "lat": 48.396864
            }
        },
        {
            "name": "Hojdačky",
            "fileName": "hojdacky",
            "description": "Hojdačky pri škôlke",
            "url": "./images/hojdacky.jpg",
            "timestamp": "2023-11-26 13:00:12",
            "location": {
                "lng": 18.353411,
                "lat": 48.396864
            }
        },
        {
            "name": "Kubko",
            "fileName": "kubko",
            "description": "Rozpadnutý Kubko pri škôlke",
            "url": "./images/kubko.jpg",
            "timestamp": "2023-11-26 13:01:21",
            "location": {
                "lng": 18.353411,
                "lat": 48.396864
            }
        },
        {
            "name": "Bránka 3",
            "fileName": "branka3",
            "description": "Poctivá futbalová bránka s krtincami",
            "url": "./images/branka3.jpg",
            "timestamp": "2023-11-26 13:05:57",
            "location": {
                "lng": 18.353586,
                "lat": 48.398200
            }
        },
        {
            "name": "Striedačka",
            "fileName": "striedacka",
            "description": "Striedačka na futbalovom ihrisku",
            "url": "./images/striedacka.jpg",
            "timestamp": "2023-11-26 13:06:22",
            "location": {
                "lng": 18.353586,
                "lat": 48.398200
            }
        },
        {
            "name": "Potok",
            "fileName": "potocik",
            "description": "Pohľad na potôčik menom Pelúsok",
            "url": "./images/potocik.jpg",
            "timestamp": "2023-11-26 13:10:56",
            "location": {
                "lng": 18.352986,
                "lat": 48.397162
            }
        },
        {
            "name": "Kvietky",
            "fileName": "kvietky",
            "description": "Trvalky s pumpou",
            "url": "./images/kvietky.jpg",
            "timestamp": "2023-11-26 13:14:04",
            "location": {
                "lng": 18.351230,
                "lat": 48.396999
            }
        },
        {
            "name": "Ruina",
            "fileName": "ruina",
            "description": "Rozpadnutá strecha domu",
            "url": "./images/ruina.jpg",
            "timestamp": "2023-11-26 13:16:23",
            "location": {
                "lng": 18.351178,
                "lat": 48.397554
            }
        },
        {
            "name": "Fúrik",
            "fileName": "furik",
            "description": "Hrdzavý fúrik hore dnom",
            "url": "./images/furik.jpg",
            "timestamp": "2023-11-26 13:17:45",
            "location": {
                "lng": 18.351178,
                "lat": 48.397554
            }
        }
    ]
}